$GPGGA,220526.00,5612.063618,N,00230.133849,E,1,09,1.20,4.0,M,0.0,M,,*6C
$GPRMC,220526.00,A,5612.063618,N,00230.133849,E,5.000,45.0,160426,,,A*63
$GPVTG,45.0,T,45.0,M,5.000,N,9.260,K,A*2B
$GPGGA,220527.00,5612.064599,N,00230.135613,E,1,09,1.20,4.0,M,0.0,M,,*67
$GPRMC,220527.00,A,5612.064599,N,00230.135613,E,5.000,45.0,160426,,,A*68
$GPVTG,45.0,T,45.0,M,5.000,N,9.260,K,A*2B
$GPGGA,220528.00,5612.065581,N,00230.137378,E,1,09,1.20,4.0,M,0.0,M,,*6A
$GPRMC,220528.00,A,5612.065581,N,00230.137378,E,5.000,45.0,160426,,,A*65
$GPVTG,45.0,T,45.0,M,5.000,N,9.260,K,A*2B
$GPZDA,220528.00,16,04,2026,00,00*6C
$GPGGA,220529.00,5612.066562,N,00230.139142,E,1,09,1.20,4.0,M,0.0,M,,*60
$GPRMC,220529.00,A,5612.066562,N,00230.139142,E,5.000,45.0,160426,,,A*6F
$GPVTG,45.0,T,45.0,M,5.000,N,9.260,K,A*2B
$GPZDA,220529.00,16,04,2026,00,00*6D
$GPGGA,220530.00,5612.067543,N,00230.140906,E,1,09,1.20,4.0,M,0.0,M,,*6C
$GPRMC,220530.00,A,5612.067543,N,00230.140906,E,5.000,45.0,160426,,,A*63
$GPVTG,45.0,T,45.0,M,5.000,N,9.260,K,A*2B
$GPZDA,220530.00,16,04,2026,00,00*65
$GPGGA,220531.00,5612.068525,N,00230.142670,E,1,09,1.20,4.0,M,0.0,M,,*6E
$GPRMC,220531.00,A,5612.068525,N,00230.142670,E,5.000,45.0,160426,,,A*61
$GPVTG,45.0,T,45.0,M,5.000,N,9.260,K,A*2B
$GPZDA,220531.00,16,04,2026,00,00*64
$GPGGA,220532.00,5612.069506,N,00230.144435,E,1,09,1.20,4.0,M,0.0,M,,*68
$GPRMC,220532.00,A,5612.069506,N,00230.144435,E,5.000,45.0,160426,,,A*67
$GPVTG,45.0,T,45.0,M,5.000,N,9.260,K,A*2B
$GPZDA,220532.00,16,04,2026,00,00*67
$GPGGA,220533.00,5612.070488,N,00230.146199,E,1,09,1.20,4.0,M,0.0,M,,*67
$GPRMC,220533.00,A,5612.070488,N,00230.146199,E,5.000,45.0,160426,,,A*68
$GPVTG,45.0,T,45.0,M,5.000,N,9.260,K,A*2B
$GPZDA,220533.00,16,04,2026,00,00*66
$GPGGA,220534.00,5612.071469,N,00230.147963,E,1,09,1.20,4.0,M,0.0,M,,*62
$GPRMC,220534.00,A,5612.071469,N,00230.147963,E,5.000,45.0,160426,,,A*6D
$GPVTG,45.0,T,45.0,M,5.000,N,9.260,K,A*2B
$GPZDA,220534.00,16,04,2026,00,00*61
$GPGGA,220535.00,5612.072451,N,00230.149728,E,1,09,1.20,4.0,M,0.0,M,,*64
$GPRMC,220535.00,A,5612.072451,N,00230.149728,E,5.000,45.0,160426,,,A*6B
$GPVTG,45.0,T,45.0,M,5.000,N,9.260,K,A*2B
$GPZDA,220535.00,16,04,2026,00,00*60
$GPGGA,220536.00,5612.073432,N,00230.151492,E,1,09,1.20,4.0,M,0.0,M,,*68
$GPRMC,220536.00,A,5612.073432,N,00230.151492,E,5.000,45.0,160426,,,A*67
$GPVTG,45.0,T,45.0,M,5.000,N,9.260,K,A*2B
$GPZDA,220536.00,16,04,2026,00,00*63
$GPGGA,220537.00,5612.074413,N,00230.153256,E,1,09,1.20,4.0,M,0.0,M,,*61
$GPRMC,220537.00,A,5612.074413,N,00230.153256,E,5.000,45.0,160426,,,A*6E
$GPVTG,45.0,T,45.0,M,5.000,N,9.260,K,A*2B
$GPZDA,220537.00,16,04,2026,00,00*62
$GPGGA,220538.00,5612.075395,N,00230.155020,E,1,09,1.20,4.0,M,0.0,M,,*63
$GPRMC,220538.00,A,5612.075395,N,00230.155020,E,5.000,45.0,160426,,,A*6C
$GPVTG,45.0,T,45.0,M,5.000,N,9.260,K,A*2B
$GPZDA,220538.00,16,04,2026,00,00*6D
$GPGGA,220539.00,5612.076376,N,00230.156785,E,1,09,1.20,4.0,M,0.0,M,,*67
$GPRMC,220539.00,A,5612.076376,N,00230.156785,E,5.000,45.0,160426,,,A*68
$GPVTG,45.0,T,45.0,M,5.000,N,9.260,K,A*2B
$GPGGA,220540.00,5612.077358,N,00230.158549,E,1,09,1.20,4.0,M,0.0,M,,*68
$GPRMC,220540.00,A,5612.077358,N,00230.158549,E,5.000,45.0,160426,,,A*67
$GPVTG,45.0,T,45.0,M,5.000,N,9.260,K,A*2B
$GPGGA,220541.00,5612.078339,N,00230.160313,E,1,09,1.20,4.0,M,0.0,M,,*63
$GPRMC,220541.00,A,5612.078339,N,00230.160313,E,5.000,45.0,160426,,,A*6C
$GPVTG,45.0,T,45.0,M,5.000,N,9.260,K,A*2B
$GPGGA,220542.00,5612.079321,N,00230.162078,E,1,09,1.20,4.0,M,0.0,M,,*64
$GPRMC,220542.00,A,5612.079321,N,00230.162078,E,5.000,45.0,160426,,,A*6B
$GPVTG,45.0,T,45.0,M,5.000,N,9.260,K,A*2B
$GPGGA,220543.00,5612.080302,N,00230.163842,E,1,09,1.20,4.0,M,0.0,M,,*62
$GPRMC,220543.00,A,5612.080302,N,00230.163842,E,5.000,45.0,160426,,,A*6D
$GPVTG,45.0,T,45.0,M,5.000,N,9.260,K,A*2B
$GPGGA,220544.00,5612.081283,N,00230.165606,E,1,09,1.20,4.0,M,0.0,M,,*64
$GPRMC,220544.00,A,5612.081283,N,00230.165606,E,5.000,45.0,160426,,,A*6B
$GPVTG,45.0,T,45.0,M,5.000,N,9.260,K,A*2B
$GPGGA,220545.00,5612.082265,N,00230.167370,E,0,00,99.90,4.0,M,0.0,M,,*5A
$GPGGA,220546.00,5612.082265,N,00230.167370,E,0,00,99.90,4.0,M,0.0,M,,*59
$GPGGA,220547.00,5612.082265,N,00230.167370,E,0,00,99.90,4.0,M,0.0,M,,*58
$GPGGA,220548.00,5612.082265,N,00230.167370,E,0,00,99.90,4.0,M,0.0,M,,*57
$GPGGA,220549.00,5612.082265,N,00230.167370,E,0,00,99.90,4.0,M,0.0,M,,*56
$GPGGA,220550.00,5612.082265,N,00230.167370,E,0,00,99.90,4.0,M,0.0,M,,*5E
$GPGGA,220551.00,5612.082265,N,00230.167370,E,0,00,99.90,4.0,M,0.0,M,,*5F
$GPGGA,220552.00,5612.082265,N,00230.167370,E,0,00,99.90,4.0,M,0.0,M,,*5C
$GPGGA,220553.00,5612.082265,N,00230.167370,E,0,00,99.90,4.0,M,0.0,M,,*5D
$GPGGA,220554.00,5612.082265,N,00230.167370,E,0,00,99.90,4.0,M,0.0,M,,*5A
$GPGGA,220555.00,5612.082265,N,00230.167370,E,0,00,99.90,4.0,M,0.0,M,,*5B
$GPGGA,220556.00,5612.082265,N,00230.167370,E,0,00,99.90,4.0,M,0.0,M,,*58
$GPGGA,220557.00,5612.082265,N,00230.167370,E,0,00,99.90,4.0,M,0.0,M,,*59
$GPGGA,220558.00,5612.082265,N,00230.167370,E,0,00,99.90,4.0,M,0.0,M,,*56
