$GPZDA,120000.00,15,04,2026,00,00*63
$GPGGA,120000.00,2254.0000,S,04310.0000,W,2,10,0.9,15.0,M,-2.3,M,,*44
$GPRMC,120000.00,A,2254.0000,S,04310.0000,W,5.5,45.0,150426,,,A*60
$GPVTG,45.0,T,,M,5.5,N,10.2,K,A*0F
$GPZDA,120001.00,15,04,2026,00,00*62
$GPGGA,120001.00,2254.0000,S,04310.0000,W,2,10,0.9,15.0,M,-2.3,M,,*45
$GPRMC,120001.00,A,2254.0000,S,04310.0000,W,5.5,45.0,150426,,,A*61
$GPVTG,45.0,T,,M,5.5,N,10.2,K,A*0F
$GPZDA,120002.00,15,04,2026,00,00*61
$GPGGA,120002.00,2254.0000,S,04310.0000,W,2,10,0.9,15.0,M,-2.3,M,,*46
$GPRMC,120002.00,A,2254.0000,S,04310.0000,W,5.5,45.0,150426,,,A*62
$GPVTG,45.0,T,,M,5.5,N,10.2,K,A*0F
$GPZDA,120003.00,15,04,2026,00,00*60
$GPGGA,120003.00,2254.0000,S,04310.0000,W,2,10,0.9,15.0,M,-2.3,M,,*47
$GPRMC,120003.00,A,2254.0000,S,04310.0000,W,5.5,45.0,150426,,,A*63
$GPVTG,45.0,T,,M,5.5,N,10.2,K,A*0F
$GPZDA,120004.00,15,04,2026,00,00*67
$GPGGA,120004.00,2254.0000,S,04310.0000,W,2,10,0.9,15.0,M,-2.3,M,,*40
$GPRMC,120004.00,A,2254.0000,S,04310.0000,W,5.5,45.0,150426,,,A*64
$GPVTG,45.0,T,,M,5.5,N,10.2,K,A*0F
$GPZDA,120005.00,15,04,2026,00,00*66
$GPGGA,120005.00,2254.0000,S,04310.0000,W,2,10,0.9,15.0,M,-2.3,M,,*41
$GPRMC,120005.00,A,2254.0000,S,04310.0000,W,5.5,45.0,150426,,,A*65
$GPVTG,45.0,T,,M,5.5,N,10.2,K,A*0F
$GPZDA,120006.00,15,04,2026,00,00*65
$GPGGA,120006.00,2254.0000,S,04310.0000,W,2,10,0.9,15.0,M,-2.3,M,,*42
$GPRMC,120006.00,A,2254.0000,S,04310.0000,W,5.5,45.0,150426,,,A*66
$GPVTG,45.0,T,,M,5.5,N,10.2,K,A*0F
$GPZDA,120007.00,15,04,2026,00,00*64
$GPGGA,120007.00,2254.0000,S,04310.0000,W,2,10,0.9,15.0,M,-2.3,M,,*43
$GPRMC,120007.00,A,2254.0000,S,04310.0000,W,5.5,45.0,150426,,,A*67
$GPVTG,45.0,T,,M,5.5,N,10.2,K,A*0F
$GPZDA,120008.00,15,04,2026,00,00*6B
$GPGGA,120008.00,2254.0000,S,04310.0000,W,2,10,0.9,15.0,M,-2.3,M,,*4C
$GPRMC,120008.00,A,2254.0000,S,04310.0000,W,5.5,45.0,150426,,,A*68
$GPVTG,45.0,T,,M,5.5,N,10.2,K,A*0F
$GPZDA,120009.00,15,04,2026,00,00*6A
$GPGGA,120009.00,2254.0000,S,04310.0000,W,2,10,0.9,15.0,M,-2.3,M,,*4D
$GPRMC,120009.00,A,2254.0000,S,04310.0000,W,5.5,45.0,150426,,,A*69
$GPVTG,45.0,T,,M,5.5,N,10.2,K,A*0F
$GPZDA,120010.00,15,04,2026,00,00*62
$GPGGA,120010.00,2254.0000,S,04310.0000,W,0,0,99.9,0.0,M,-2.3,M,,*72
$GPRMC,120010.00,V,2254.0000,S,04310.0000,W,0.0,0.0,150426,,,A*47
$GPZDA,120011.00,15,04,2026,00,00*63
$GPGGA,120011.00,2254.0000,S,04310.0000,W,0,0,99.9,0.0,M,-2.3,M,,*73
$GPRMC,120011.00,V,2254.0000,S,04310.0000,W,0.0,0.0,150426,,,A*46
$GPZDA,120012.00,15,04,2026,00,00*60
$GPGGA,120012.00,2254.0000,S,04310.0000,W,0,0,99.9,0.0,M,-2.3,M,,*70
$GPRMC,120012.00,V,2254.0000,S,04310.0000,W,0.0,0.0,150426,,,A*45
$GPZDA,120013.00,15,04,2026,00,00*61
$GPGGA,120013.00,2254.0000,S,04310.0000,W,0,0,99.9,0.0,M,-2.3,M,,*71
$GPRMC,120013.00,V,2254.0000,S,04310.0000,W,0.0,0.0,150426,,,A*44
$GPZDA,120014.00,15,04,2026,00,00*66
$GPGGA,120014.00,2254.0000,S,04310.0000,W,0,0,99.9,0.0,M,-2.3,M,,*76
$GPRMC,120014.00,V,2254.0000,S,04310.0000,W,0.0,0.0,150426,,,A*43
$GPZDA,120015.00,15,04,2026,00,00*67
$GPGGA,120015.00,2254.0000,S,04310.0000,W,1,4,4.5,15.0,M,-2.3,M,,*7E
$GPRMC,120015.00,A,2254.0000,S,04310.0000,W,5.5,45.0,150426,,,A*64
$GPVTG,45.0,T,,M,5.5,N,10.2,K,A*0F
$GPZDA,120016.00,15,04,2026,00,00*64
$GPGGA,120016.00,2254.0000,S,04310.0000,W,1,4,4.5,15.0,M,-2.3,M,,*7D
$GPRMC,120016.00,A,2254.0000,S,04310.0000,W,5.5,45.0,150426,,,A*67
$GPVTG,45.0,T,,M,5.5,N,10.2,K,A*0F
$GPZDA,120017.00,15,04,2026,00,00*65
$GPGGA,120017.00,2254.0000,S,04310.0000,W,1,4,4.5,15.0,M,-2.3,M,,*7C
$GPRMC,120017.00,A,2254.0000,S,04310.0000,W,5.5,45.0,150426,,,A*66
$GPVTG,45.0,T,,M,5.5,N,10.2,K,A*0F
$GPZDA,120018.00,15,04,2026,00,00*6A
$GPGGA,120018.00,2254.0000,S,04310.0000,W,1,4,4.5,15.0,M,-2.3,M,,*73
$GPRMC,120018.00,A,2254.0000,S,04310.0000,W,5.5,45.0,150426,,,A*69
$GPVTG,45.0,T,,M,5.5,N,10.2,K,A*0F
$GPZDA,120019.00,15,04,2026,00,00*6B
$GPGGA,120019.00,2254.0000,S,04310.0000,W,1,4,4.5,15.0,M,-2.3,M,,*72
$GPRMC,120019.00,A,2254.0000,S,04310.0000,W,5.5,45.0,150426,,,A*68
$GPVTG,45.0,T,,M,5.5,N,10.2,K,A*0F
$GPZDA,120020.00,15,04,2026,00,00*61
$GPGGA,120020.00,2254.0000,S,04310.0000,W,2,10,0.9,15.0,M,-2.3,M,,*46
$GPRMC,120020.00,A,2254.0000,S,04310.0000,W,5.5,45.0,150426,,,A*62
$GPVTG,45.0,T,,M,5.5,N,10.2,K,A*0F
$GPZDA,120021.00,15,04,2026,00,00*60
$GPGGA,120021.00,2254.0000,S,04310.0000,W,2,10,0.9,15.0,M,-2.3,M,,*47
$GPRMC,120021.00,A,2254.0000,S,04310.0000,W,5.5,45.0,150426,,,A*63
$GPVTG,45.0,T,,M,5.5,N,10.2,K,A*0F
$GPZDA,120022.00,15,04,2026,00,00*63
$GPGGA,120022.00,2254.0000,S,04310.0000,W,2,10,0.9,15.0,M,-2.3,M,,*44
$GPRMC,120022.00,A,2254.0000,S,04310.0000,W,5.5,45.0,150426,,,A*60
$GPVTG,45.0,T,,M,5.5,N,10.2,K,A*0F
$GPZDA,120023.00,15,04,2026,00,00*62
$GPGGA,120023.00,2254.0000,S,04310.0000,W,2,10,0.9,15.0,M,-2.3,M,,*45
$GPRMC,120023.00,A,2254.0000,S,04310.0000,W,5.5,45.0,150426,,,A*61
$GPVTG,45.0,T,,M,5.5,N,10.2,K,A*0F
$GPZDA,120024.00,15,04,2026,00,00*65
$GPGGA,120024.00,2254.0000,S,04310.0000,W,2,10,0.9,15.0,M,-2.3,M,,*42
$GPRMC,120024.00,A,2254.0000,S,04310.0000,W,5.5,45.0,150426,,,A*66
$GPVTG,45.0,T,,M,5.5,N,10.2,K,A*0F
$GPZDA,120025.00,15,04,2026,00,00*64
$GPGGA,120025.00,2254.0000,S,04310.0000,W,2,10,0.9,15.0,M,-2.3,M,,*43
$GPRMC,120025.00,A,2254.0000,S,04310.0000,W,5.5,45.0,150426,,,A*67
$GPVTG,45.0,T,,M,5.5,N,10.2,K,A*0F
$GPZDA,120026.00,15,04,2026,00,00*67
$GPGGA,120026.00,2254.0000,S,04310.0000,W,2,10,0.9,15.0,M,-2.3,M,,*40
$GPRMC,120026.00,A,2254.0000,S,04310.0000,W,5.5,45.0,150426,,,A*64
$GPVTG,45.0,T,,M,5.5,N,10.2,K,A*0F
$GPZDA,120027.00,15,04,2026,00,00*66
$GPGGA,120027.00,2254.0000,S,04310.0000,W,2,10,0.9,15.0,M,-2.3,M,,*41
$GPRMC,120027.00,A,2254.0000,S,04310.0000,W,5.5,45.0,150426,,,A*65
$GPVTG,45.0,T,,M,5.5,N,10.2,K,A*0F
$GPZDA,120028.00,15,04,2026,00,00*69
$GPGGA,120028.00,2254.0000,S,04310.0000,W,2,10,0.9,15.0,M,-2.3,M,,*4E
$GPRMC,120028.00,A,2254.0000,S,04310.0000,W,5.5,45.0,150426,,,A*6A
$GPVTG,45.0,T,,M,5.5,N,10.2,K,A*0F
$GPZDA,120029.00,15,04,2026,00,00*68
$GPGGA,120029.00,2254.0000,S,04310.0000,W,2,10,0.9,15.0,M,-2.3,M,,*4F
$GPRMC,120029.00,A,2254.0000,S,04310.0000,W,5.5,45.0,150426,,,A*6B
$GPVTG,45.0,T,,M,5.5,N,10.2,K,A*0F
